{
   "html_attributions" : [],
   "results" : [
      {
         "formatted_address" : "대한민국 서울특별시 노원구 상계동 389-125",
         "geometry" : {
            "location" : {
               "lat" : 37.66121930000001,
               "lng" : 127.0706245
            },
            "viewport" : {
               "northeast" : {
                  "lat" : 37.66256912989272,
                  "lng" : 127.0719743298927
               },
               "southwest" : {
                  "lat" : 37.65986947010728,
                  "lng" : 127.0692746701073
               }
            }
         },
         "icon" : "https://maps.gstatic.com/mapfiles/place_api/icons/generic_business-71.png",
         "id" : "5482644ddd4d21e112e5c0ef54231afc0d8dcf11",
         "name" : "노원동물병원",
         "place_id" : "ChIJf7ITchC5fDURlMwPj_U0VZY",
         "plus_code" : {
            "compound_code" : "M36C+F6 서울특별시",
            "global_code" : "8Q99M36C+F6"
         },
         "rating" : 0,
         "reference" : "ChIJf7ITchC5fDURlMwPj_U0VZY",
         "types" : [ "veterinary_care", "point_of_interest", "establishment" ],
         "user_ratings_total" : 0
      },
      {
         "formatted_address" : "대한민국 서울특별시 노원구 상계2동 노원로 470",
         "geometry" : {
            "location" : {
               "lat" : 37.6583016,
               "lng" : 127.065723
            },
            "viewport" : {
               "northeast" : {
                  "lat" : 37.65965142989272,
                  "lng" : 127.0670728298927
               },
               "southwest" : {
                  "lat" : 37.65695177010728,
                  "lng" : 127.0643731701073
               }
            }
         },
         "icon" : "https://maps.gstatic.com/mapfiles/place_api/icons/generic_business-71.png",
         "id" : "fbad5c0ed605c842896be90e76ced3a6d7f16149",
         "name" : "스마트동물병원",
         "opening_hours" : {
            "open_now" : false
         },
         "photos" : [
            {
               "height" : 4032,
               "html_attributions" : [
                  "\u003ca href=\"https://maps.google.com/maps/contrib/108690691476994051794/photos\"\u003e신승헌\u003c/a\u003e"
               ],
               "photo_reference" : "CmRaAAAA6e-Az9gToTJ6NKVmr5iVjypCbXNHo6ZY23YnwU_rymUtgRbZOVYcfxFtCHSstzqRexzXxUJzpmhSxyBvNiM2x2TZxiVUKGwmWpwk3waoWeuuxTlTzzQIh0wDAq-YhbLlEhDDAdeJCrVTDHmqCIM1vMInGhRLTLOgi5urf8YwkM4RzURnoZzGqg",
               "width" : 1960
            }
         ],
         "place_id" : "ChIJHXfZGRS5fDURHU9-RNZ_vbw",
         "plus_code" : {
            "compound_code" : "M358+87 서울특별시",
            "global_code" : "8Q99M358+87"
         },
         "rating" : 4.7,
         "reference" : "ChIJHXfZGRS5fDURHU9-RNZ_vbw",
         "types" : [ "veterinary_care", "point_of_interest", "establishment" ],
         "user_ratings_total" : 20
      },
      {
         "formatted_address" : "대한민국 서울특별시 노원구 공릉동 653-10",
         "geometry" : {
            "location" : {
               "lat" : 37.6192524,
               "lng" : 127.0796526
            },
            "viewport" : {
               "northeast" : {
                  "lat" : 37.62060222989272,
                  "lng" : 127.0810024298927
               },
               "southwest" : {
                  "lat" : 37.61790257010728,
                  "lng" : 127.0783027701073
               }
            }
         },
         "icon" : "https://maps.gstatic.com/mapfiles/place_api/icons/generic_business-71.png",
         "id" : "b8837a79849bdb06d515062ac6382db1e07e2471",
         "name" : "화랑동물병원",
         "place_id" : "ChIJ7yWfUsy7fDURVKdOK8Xqhig",
         "plus_code" : {
            "compound_code" : "J39H+PV 서울특별시",
            "global_code" : "8Q99J39H+PV"
         },
         "rating" : 4.3,
         "reference" : "ChIJ7yWfUsy7fDURVKdOK8Xqhig",
         "types" : [ "veterinary_care", "point_of_interest", "establishment" ],
         "user_ratings_total" : 14
      },
      {
         "formatted_address" : "대한민국 서울특별시 노원구 상계3.4동 79-145",
         "geometry" : {
            "location" : {
               "lat" : 37.6634136,
               "lng" : 127.076235
            },
            "viewport" : {
               "northeast" : {
                  "lat" : 37.66476342989272,
                  "lng" : 127.0775848298927
               },
               "southwest" : {
                  "lat" : 37.66206377010728,
                  "lng" : 127.0748851701073
               }
            }
         },
         "icon" : "https://maps.gstatic.com/mapfiles/place_api/icons/generic_business-71.png",
         "id" : "d77f542b062d1ce1b3c0f25793b89b606007107f",
         "name" : "고려동물병원",
         "photos" : [
            {
               "height" : 3024,
               "html_attributions" : [
                  "\u003ca href=\"https://maps.google.com/maps/contrib/115711528347802066893/photos\"\u003eA Google User\u003c/a\u003e"
               ],
               "photo_reference" : "CmRaAAAA06Kyxr8vIuK_5VWmS3XXaxGLrsLbAN7v-7DeS0HpEL95-s5NIwy383uJik5mOnhdUNJIBV-FYiNNnzO45A0SKS45P8jlewIOTKaz2tCrbZ64zJZL3vYVAfHAnFa_Rz7SEhBw5Q9zQMn3FTvyztw4wXD6GhQmsKl86iocO_p9vMaKlEL6Q5StEw",
               "width" : 4032
            }
         ],
         "place_id" : "ChIJB6gmDAS5fDURzgp1RB4WBTY",
         "plus_code" : {
            "compound_code" : "M37G+9F 서울특별시",
            "global_code" : "8Q99M37G+9F"
         },
         "rating" : 4.8,
         "reference" : "ChIJB6gmDAS5fDURzgp1RB4WBTY",
         "types" : [ "veterinary_care", "point_of_interest", "establishment" ],
         "user_ratings_total" : 4
      },
      {
         "formatted_address" : "대한민국 서울특별시 노원구 중계4동 한글비석로 363",
         "geometry" : {
            "location" : {
               "lat" : 37.6579663,
               "lng" : 127.0745193
            },
            "viewport" : {
               "northeast" : {
                  "lat" : 37.65931612989272,
                  "lng" : 127.0758691298927
               },
               "southwest" : {
                  "lat" : 37.65661647010727,
                  "lng" : 127.0731694701072
               }
            }
         },
         "icon" : "https://maps.gstatic.com/mapfiles/place_api/icons/generic_business-71.png",
         "id" : "578113541e6eb53b138229b9a4073e3f1b51fdb5",
         "name" : "은마로동물병원",
         "place_id" : "ChIJ4eq6XQ65fDURM7ddC068vyU",
         "plus_code" : {
            "compound_code" : "M35F+5R 서울특별시",
            "global_code" : "8Q99M35F+5R"
         },
         "rating" : 3,
         "reference" : "ChIJ4eq6XQ65fDURM7ddC068vyU",
         "types" : [ "veterinary_care", "point_of_interest", "establishment" ],
         "user_ratings_total" : 3
      },
      {
         "formatted_address" : "대한민국 서울특별시 노원구 상계동 1262",
         "geometry" : {
            "location" : {
               "lat" : 37.6790818,
               "lng" : 127.0549275
            },
            "viewport" : {
               "northeast" : {
                  "lat" : 37.68043162989272,
                  "lng" : 127.0562773298927
               },
               "southwest" : {
                  "lat" : 37.67773197010727,
                  "lng" : 127.0535776701073
               }
            }
         },
         "icon" : "https://maps.gstatic.com/mapfiles/place_api/icons/generic_business-71.png",
         "id" : "90d1c3bfb36493be67d85944d65e38c339fe63be",
         "name" : "수동물병원",
         "place_id" : "ChIJLeEUINm4fDURey91dyv48yc",
         "plus_code" : {
            "compound_code" : "M3H3+JX 서울특별시",
            "global_code" : "8Q99M3H3+JX"
         },
         "rating" : 2,
         "reference" : "ChIJLeEUINm4fDURey91dyv48yc",
         "types" : [ "veterinary_care", "point_of_interest", "establishment" ],
         "user_ratings_total" : 1
      },
      {
         "formatted_address" : "대한민국 서울특별시 노원구 중계1동 361",
         "geometry" : {
            "location" : {
               "lat" : 37.64686,
               "lng" : 127.0709026
            },
            "viewport" : {
               "northeast" : {
                  "lat" : 37.64820982989272,
                  "lng" : 127.0722524298927
               },
               "southwest" : {
                  "lat" : 37.64551017010728,
                  "lng" : 127.0695527701073
               }
            }
         },
         "icon" : "https://maps.gstatic.com/mapfiles/place_api/icons/generic_business-71.png",
         "id" : "a92620a0bf3a927b89728cb65c1e63123913f9dd",
         "name" : "쿨펫동물병원",
         "place_id" : "ChIJD4_NFG65fDURZHCDuIFFPF4",
         "plus_code" : {
            "compound_code" : "J3WC+P9 서울특별시",
            "global_code" : "8Q99J3WC+P9"
         },
         "rating" : 0,
         "reference" : "ChIJD4_NFG65fDURZHCDuIFFPF4",
         "types" : [ "veterinary_care", "point_of_interest", "establishment" ],
         "user_ratings_total" : 0
      },
      {
         "formatted_address" : "대한민국 서울특별시 노원구 공릉1동 576-23",
         "geometry" : {
            "location" : {
               "lat" : 37.621655,
               "lng" : 127.0739
            },
            "viewport" : {
               "northeast" : {
                  "lat" : 37.62300482989271,
                  "lng" : 127.0752498298927
               },
               "southwest" : {
                  "lat" : 37.62030517010727,
                  "lng" : 127.0725501701072
               }
            }
         },
         "icon" : "https://maps.gstatic.com/mapfiles/place_api/icons/generic_business-71.png",
         "id" : "895e04a892cb0d7c6edbc5ca8d0f1672ede98509",
         "name" : "메인동물메디컬센터",
         "place_id" : "ChIJP9tEoc-7fDURFYDF4F6D85E",
         "plus_code" : {
            "compound_code" : "J3CF+MH 서울특별시",
            "global_code" : "8Q99J3CF+MH"
         },
         "rating" : 2,
         "reference" : "ChIJP9tEoc-7fDURFYDF4F6D85E",
         "types" : [ "veterinary_care", "health", "point_of_interest", "establishment" ],
         "user_ratings_total" : 4
      },
      {
         "formatted_address" : "대한민국 서울특별시 노원구 상계1동 1118-53",
         "geometry" : {
            "location" : {
               "lat" : 37.6755784,
               "lng" : 127.0550145
            },
            "viewport" : {
               "northeast" : {
                  "lat" : 37.67692822989272,
                  "lng" : 127.0563643298927
               },
               "southwest" : {
                  "lat" : 37.67422857010727,
                  "lng" : 127.0536646701073
               }
            }
         },
         "icon" : "https://maps.gstatic.com/mapfiles/place_api/icons/generic_business-71.png",
         "id" : "9adfa82ef1ee50eaaee0816f464b8a74a2042bbb",
         "name" : "은빛동물병원",
         "place_id" : "ChIJoxmTQCe5fDURWgTNmqWV7Es",
         "plus_code" : {
            "compound_code" : "M3G4+62 서울특별시",
            "global_code" : "8Q99M3G4+62"
         },
         "rating" : 0,
         "reference" : "ChIJoxmTQCe5fDURWgTNmqWV7Es",
         "types" : [ "veterinary_care", "point_of_interest", "establishment" ],
         "user_ratings_total" : 0
      }
   ],
   "status" : "OK"
}